,City,Lat,Lng,Max Temp,Humidity,Cloudiness,Wind Speed,Country,Date
0,hithadhoo,-0.6,73.08,82.31,73,80,9.01,MV,1576233078
1,sao filipe,14.9,-24.5,74.34,62,21,16.02,CV,1576233078
2,salalah,17.01,54.1,84.2,62,0,9.17,OM,1576233078
3,shache,38.42,77.24,33.01,80,98,2.24,CN,1576233078
4,clyde river,70.47,-68.59,-9.22,73,96,9.62,CA,1576233078
5,norman wells,65.28,-126.83,-11.2,69,5,12.75,CA,1576233079
6,albany,42.65,-73.75,30.99,63,75,9.17,US,1576233025
7,jamestown,-33.21,138.6,58.23,58,63,10.56,AU,1576233079
8,yellowknife,62.45,-114.38,-27.99,65,5,4.7,CA,1576233080
9,atuona,-9.8,-139.03,78.78,57,0,4.9,PF,1576233080
10,bredasdorp,-34.53,20.04,77.0,53,43,18.34,ZA,1576233080
11,komsomolskiy,67.55,63.78,5.02,97,98,3.27,RU,1576233081
12,vega de alatorre,20.03,-96.65,68.07,83,47,10.2,MX,1576233081
13,plastun,44.76,136.29,19.31,77,100,3.78,RU,1576233082
14,longyearbyen,78.22,15.63,23.0,67,75,26.4,NO,1576233082
15,bethel,60.79,-161.76,21.2,85,90,12.75,US,1576233082
16,elat,2.91,11.16,80.82,67,100,2.73,CM,1576233082
17,carnarvon,-30.97,22.13,89.67,12,0,15.14,ZA,1576233083
18,rikitea,-23.12,-134.97,73.2,79,77,24.07,PF,1576233083
19,ushuaia,-54.81,-68.31,41.0,80,75,4.7,AR,1576232918
20,bharatpur,27.22,77.5,65.97,65,7,0.67,IN,1576233083
21,dingle,11.0,122.67,74.44,93,21,9.4,PH,1576233084
22,avera,33.19,-82.53,39.2,86,90,10.29,US,1576233084
23,los llanos de aridane,28.66,-17.92,66.2,55,75,10.29,ES,1576233084
24,nanning,22.83,108.3,73.4,53,0,2.24,CN,1576233084
25,bismarck,46.81,-100.78,23.0,85,75,5.82,US,1576233084
26,thompson,55.74,-97.86,-34.6,65,5,3.4,CA,1576233013
27,moose factory,51.26,-80.61,-25.6,74,1,3.36,CA,1576233085
28,puerto ayora,-0.74,-90.35,71.01,86,5,8.99,EC,1576233085
29,lingao,19.91,109.69,71.13,85,92,19.73,CN,1576233085
30,nizhniy tsasuchey,50.52,115.13,11.89,82,0,4.97,RU,1576233085
31,aksu,52.04,76.93,33.8,100,90,4.47,KZ,1576233086
32,constitucion,23.99,-104.67,43.0,49,0,8.99,MX,1576233086
33,natchitoches,31.76,-93.09,48.2,100,90,2.95,US,1576233086
34,zhigansk,66.77,123.37,-30.05,94,61,10.04,RU,1576233086
35,tezu,27.93,96.16,62.53,57,83,4.29,IN,1576233086
36,busselton,-33.64,115.35,93.0,5,0,12.86,AU,1576233087
37,severo-kurilsk,50.68,156.12,25.11,89,100,8.46,RU,1576233087
38,lakes entrance,-37.88,147.99,64.0,61,100,16.06,AU,1576233087
39,inirida,3.87,-67.92,75.74,91,99,1.23,CO,1576233088
40,hermanus,-34.42,19.24,82.99,52,0,3.0,ZA,1576233088
41,mataura,-46.19,168.86,54.0,76,33,14.0,NZ,1576233088
42,namibe,-15.19,12.15,77.0,65,20,17.22,AO,1576233088
43,vaini,15.34,74.49,84.2,54,40,3.36,IN,1576233089
44,khatanga,71.98,102.47,-18.98,96,51,10.33,RU,1576233089
45,new norfolk,-42.78,147.06,60.8,59,75,13.87,AU,1576233089
46,haines junction,60.75,-137.51,16.27,93,95,6.46,CA,1576233089
47,saint anthony,43.97,-111.68,34.0,80,90,5.82,US,1576233090
48,barrow,-38.31,-60.23,63.41,24,98,11.25,AR,1576233090
49,upernavik,72.79,-56.15,9.01,82,100,11.25,GL,1576233090
50,chuy,-33.69,-53.46,64.31,47,33,6.87,UY,1576233090
51,airai,-8.93,125.41,68.29,88,49,0.67,TL,1576233090
52,belmonte,40.36,-7.35,57.99,81,100,10.67,PT,1576233091
53,pevek,69.7,170.27,-3.28,95,100,8.7,RU,1576233091
54,deqing,30.54,119.97,60.01,71,41,1.39,CN,1576233091
55,monterrey,25.67,-100.32,55.0,87,5,6.93,MX,1576233023
56,punta arenas,-53.16,-70.91,46.4,87,90,9.17,CL,1576233091
57,karasburg,-28.01,18.75,92.68,8,0,12.44,NA,1576233092
58,kruisfontein,-34.0,24.73,84.56,45,6,21.92,ZA,1576233093
59,kavieng,-2.57,150.8,84.6,72,73,7.34,PG,1576233093
60,kaeo,-35.1,173.78,64.0,99,74,14.81,NZ,1576233093
61,celestun,20.87,-90.4,74.95,81,72,8.21,MX,1576233093
62,sept-iles,50.2,-66.38,-22.0,74,40,10.98,CA,1576232885
63,grindavik,63.84,-22.43,19.4,73,34,5.82,IS,1576232945
64,lukovetskiy,64.29,41.92,30.2,92,90,4.47,RU,1576233094
65,miyang,24.4,103.44,47.53,87,0,2.28,CN,1576233094
66,egvekinot,66.32,-179.17,15.21,91,97,13.27,RU,1576233094
67,hilo,19.71,-155.08,73.4,88,90,6.93,US,1576233094
68,butaritari,3.07,172.79,83.59,79,25,16.71,KI,1576233094
69,san quintin,17.54,120.52,75.78,75,0,7.76,PH,1576233095
70,castro,-42.48,-73.76,48.2,100,75,8.05,CL,1576233095
71,bluff,-23.58,149.07,76.89,75,0,9.42,AU,1576233095
72,adrar,27.87,-0.29,60.8,41,0,4.7,DZ,1576233096
73,coruripe,-10.12,-36.18,81.59,67,33,12.35,BR,1576233096
74,stanghelle,60.55,5.74,45.0,56,75,16.11,NO,1576233096
75,mantua,45.16,10.79,37.99,100,75,3.36,IT,1576233012
76,belaya gora,68.54,146.19,-18.17,97,97,3.56,RU,1576233097
77,arraial do cabo,-22.97,-42.02,75.2,94,75,6.93,BR,1576233097
78,sinnamary,5.38,-52.96,81.09,81,100,17.47,GF,1576233097
79,hobart,-42.88,147.33,60.8,59,75,13.87,AU,1576232899
80,ust-nera,64.57,143.24,-31.67,99,100,2.68,RU,1576232830
81,pisco,-13.71,-76.2,64.99,82,82,1.72,PE,1576233098
82,birao,10.3,22.78,95.56,12,48,11.68,CF,1576233098
83,pangnirtung,66.15,-65.72,-13.43,96,100,3.56,CA,1576233098
84,nemuro,43.32,145.57,23.0,62,20,3.36,JP,1576233098
85,saint-philippe,45.36,-73.48,33.8,58,90,12.75,CA,1576233099
86,tripoli,37.51,22.37,63.0,63,40,10.45,GR,1576233099
87,saint george,39.45,22.34,57.2,87,75,1.43,GR,1576233099
88,ningyang,35.76,116.79,55.0,16,0,6.38,CN,1576233099
89,balkhash,46.84,74.98,26.6,100,90,4.47,KZ,1576233099
90,vila velha,-3.71,-38.6,81.0,78,75,13.87,BR,1576233100
91,taseyevo,57.22,94.9,26.8,88,100,7.34,RU,1576233100
92,mitsamiouli,-11.38,43.28,89.6,62,40,8.05,KM,1576233100
93,morro bay,35.37,-120.85,57.99,100,1,3.85,US,1576233100
94,covasint,46.2,21.6,51.01,81,20,10.29,RO,1576233100
95,alice springs,-23.7,133.88,82.4,24,49,12.75,AU,1576233040
96,hualmay,-11.1,-77.61,66.22,79,100,2.86,PE,1576233101
97,dalby,-27.18,151.26,77.0,69,72,19.46,AU,1576233101
98,leningradskiy,69.38,178.42,4.06,97,100,17.54,RU,1576233101
99,narsaq,60.91,-46.05,33.8,24,40,25.28,GL,1576233102
100,torbay,47.66,-52.73,17.01,61,75,27.51,CA,1576233102
101,kaitangata,-46.28,169.85,55.99,46,33,21.0,NZ,1576233102
102,cape town,-33.93,18.42,82.99,51,0,8.05,ZA,1576232809
103,opuwo,-18.06,13.84,93.81,14,26,7.14,NA,1576233102
104,kedrovyy,56.17,91.82,32.0,95,100,8.95,RU,1576233103
105,gilgit,35.92,74.31,18.81,89,100,3.04,PK,1576232885
106,matagalpa,12.92,-85.92,60.55,98,68,4.76,NI,1576233103
107,lesnica,44.65,19.31,50.0,81,20,4.7,RS,1576233104
108,saldanha,41.42,-6.55,53.55,81,100,14.43,PT,1576233104
109,tamandare,-8.28,-70.75,73.08,99,100,1.57,BR,1576233104
110,chicama,-7.84,-79.15,66.2,88,75,2.24,PE,1576233104
111,mount gambier,-37.83,140.78,57.2,82,90,13.87,AU,1576233104
112,ponta do sol,-20.63,-46.0,72.84,85,93,3.24,BR,1576233105
113,dikson,73.51,80.55,-9.63,100,98,7.99,RU,1576233105
114,wanning,48.64,13.53,36.0,70,75,8.05,AT,1576233105
115,port hardy,50.7,-127.42,41.0,100,90,2.24,CA,1576233105
116,coihaique,-45.58,-72.07,46.4,87,20,5.82,CL,1576233106
117,rawa mazowiecka,51.76,20.25,37.99,93,75,6.93,PL,1576233106
118,mongu,-15.27,23.14,87.35,37,38,9.1,ZM,1576233106
119,janakkala,60.93,24.67,37.0,95,100,4.0,FI,1576233106
120,bambanglipuro,-7.95,110.28,77.88,83,97,4.25,ID,1576233106
121,east london,-33.02,27.91,73.4,73,40,18.34,ZA,1576233107
122,bambous virieux,-20.34,57.76,86.0,70,75,16.11,MU,1576233107
123,nantucket,41.28,-70.1,37.99,64,1,12.75,US,1576233107
124,avarua,-21.21,-159.78,75.2,73,44,11.41,CK,1576233047
125,tibiri,13.57,7.05,75.2,11,100,18.34,NE,1576233108
126,katsuura,33.93,134.5,46.4,65,75,3.36,JP,1576233108
127,saskylakh,71.97,114.09,-29.47,95,0,11.7,RU,1576233108
128,port moresby,-9.47,147.16,82.4,74,75,11.41,PG,1576233108
129,lompoc,34.64,-120.46,57.2,100,90,13.53,US,1576233109
130,poyarkovo,49.62,128.65,-10.66,96,90,7.23,RU,1576233109
131,kununurra,-15.77,128.74,87.8,55,87,5.82,AU,1576233109
132,tocopilla,-22.09,-70.2,62.85,22,0,1.39,CL,1576233109
133,bathsheba,13.22,-59.52,78.8,78,40,17.22,BB,1576233109
134,kapaa,22.08,-159.32,75.2,88,75,19.46,US,1576233110
135,pangody,65.85,74.49,-4.7,97,94,11.92,RU,1576233110
136,nyurba,63.29,118.35,-13.72,97,98,6.17,RU,1576233110
137,te anau,-45.41,167.72,47.1,77,84,7.63,NZ,1576233110
138,salinas,36.67,-121.66,60.01,93,90,4.05,US,1576233111
139,pasighat,28.06,95.33,64.51,71,67,2.66,IN,1576233111
140,ust-tsilma,65.44,52.15,22.77,95,100,5.14,RU,1576233111
141,yumen,40.29,97.04,25.56,37,0,12.39,CN,1576233111
142,vila franca do campo,37.72,-25.43,60.8,63,75,11.41,PT,1576233111
143,paka,4.15,15.03,93.34,26,81,4.61,CF,1576233112
144,half moon bay,37.46,-122.43,59.0,100,90,3.76,US,1576233112
145,petropavlovsk-kamchatskiy,53.05,158.65,21.2,73,100,2.24,RU,1576233112
146,salgueiro,-8.07,-39.12,83.61,37,35,13.69,BR,1576233112
147,jumla,29.28,82.18,31.53,99,100,4.88,NP,1576233112
148,alihe,50.57,123.73,-3.01,91,12,3.56,CN,1576233113
149,hobyo,5.35,48.53,84.07,60,12,17.29,SO,1576233113
150,puerto madero,-34.61,-58.36,63.0,51,2,9.17,AR,1576232878
151,cidreira,-30.17,-50.22,68.52,60,4,11.9,BR,1576233113
152,bonavista,48.65,-53.11,15.01,68,66,21.0,CA,1576233113
153,lagoa,37.14,-8.45,64.0,87,75,8.05,PT,1576233016
154,dicabisagan,17.08,122.42,77.02,88,38,10.71,PH,1576233114
155,mayo,63.59,-135.9,19.4,67,90,8.05,CA,1576233114
156,mehamn,71.03,27.85,37.4,74,100,32.21,NO,1576233114
157,arman,59.7,150.17,6.69,72,100,9.1,RU,1576233115
158,teguise,29.06,-13.56,66.2,63,75,20.8,ES,1576233115
159,kahului,20.89,-156.47,75.2,69,1,5.82,US,1576232942
160,prince rupert,54.32,-130.32,37.4,100,20,4.7,CA,1576232919
161,yarmouth,43.84,-66.12,24.01,73,75,5.82,CA,1576233116
162,tomari,47.76,142.06,23.13,55,82,7.99,RU,1576233116
163,ossora,59.24,163.07,3.22,85,55,7.38,RU,1576233117
164,kupang,-10.16,123.6,82.4,74,40,1.12,ID,1576233117
165,kodiak,39.95,-94.76,28.4,92,1,4.7,US,1576233117
166,north platte,41.12,-100.77,35.01,86,90,6.93,US,1576233117
167,kapit,2.02,112.94,71.89,97,100,0.83,MY,1576233117
168,isangel,-19.55,169.27,73.4,69,77,8.05,VU,1576233117
169,mar del plata,-46.43,-67.52,58.82,45,88,18.41,AR,1576233118
170,pyay,18.82,95.22,69.17,67,0,2.1,MM,1576233118
171,abu dhabi,24.47,54.37,80.6,50,0,5.82,AE,1576232994
172,praia da vitoria,38.73,-27.07,64.0,82,75,20.96,PT,1576233118
173,faanui,-16.48,-151.75,79.93,77,100,9.26,PF,1576233118
174,ambilobe,-13.19,49.05,86.23,68,50,9.37,MG,1576233119
175,hun,50.34,4.87,43.0,93,75,20.8,BE,1576233119
176,kolokani,13.58,-8.03,89.62,8,90,14.14,ML,1576233119
177,sioux lookout,50.1,-91.92,1.4,64,90,3.36,CA,1576233119
178,broome,52.47,1.45,44.01,87,75,12.75,GB,1576233119
179,huarmey,-10.07,-78.15,66.72,78,100,1.74,PE,1576233120
180,lebu,8.96,38.73,71.6,33,40,11.41,ET,1576233120
181,skibbereen,51.55,-9.27,41.0,75,20,13.87,IE,1576233120
182,port lincoln,-34.72,135.86,58.87,84,67,10.69,AU,1576233120
183,noumea,-22.28,166.46,80.01,60,0,2.24,NC,1576233100
184,marrakesh,31.63,-7.99,53.6,76,0,8.05,MA,1576233121
185,lata,30.78,78.62,16.93,99,100,9.66,IN,1576233121
186,havoysund,71.0,24.66,37.4,74,40,14.99,NO,1576233121
187,nikolskoye,59.7,30.79,37.0,93,75,11.18,RU,1576233121
188,cedar city,37.68,-113.06,37.4,69,20,8.05,US,1576233122
189,luderitz,-26.65,15.16,78.8,50,0,19.46,NA,1576233122
190,hirara,24.8,125.28,68.0,82,20,9.17,JP,1576233122
191,encruzilhada,-15.53,-40.91,72.5,72,100,6.13,BR,1576233122
192,lubumbashi,-11.66,27.48,80.69,62,82,3.15,CD,1576233123
193,mokhotlong,-29.29,29.06,58.78,55,66,11.21,LS,1576233123
194,elizabeth city,36.3,-76.22,52.0,87,20,8.05,US,1576233123
195,souillac,45.6,-0.6,51.01,81,96,21.92,FR,1576233124
196,goundam,16.42,-3.66,88.77,10,99,17.02,ML,1576233124
197,kang,-23.67,22.79,94.82,13,0,5.06,BW,1576233124
198,ribeira grande,38.52,-28.7,64.4,59,75,19.46,PT,1576233124
199,ardakan,32.31,54.02,55.4,30,75,6.93,IR,1576233125
200,skelleftea,64.75,20.95,35.6,93,75,9.17,SE,1576233125
201,victoria,5.28,115.24,84.2,78,75,3.36,BN,1576233126
202,pacific grove,36.62,-121.92,59.0,93,90,6.87,US,1576233126
203,koygorodok,60.44,51.01,23.95,92,100,7.25,RU,1576233126
204,dunedin,-45.87,170.5,54.0,88,46,3.0,NZ,1576233010
205,margate,-43.03,147.26,60.8,59,75,13.87,AU,1576233127
206,aitape,-3.15,142.36,83.64,81,100,13.22,PG,1576233127
207,rambouillet,48.65,1.83,46.0,70,64,19.46,FR,1576233127
208,baiyin,36.55,104.13,32.0,38,100,2.24,CN,1576233127
209,magistralnyy,56.17,107.45,14.4,90,99,5.01,RU,1576233128
210,sand,49.68,11.63,36.0,94,90,4.7,DE,1576233128
211,najran,17.54,44.22,86.0,37,20,6.93,SA,1576233128
212,khandyga,62.65,135.58,-37.95,96,29,1.95,RU,1576233129
213,jaguey grande,22.53,-81.13,66.2,93,51,4.7,CU,1576233129
214,baijiantan,45.63,85.18,20.89,90,67,2.86,CN,1576233129
215,richards bay,-28.77,32.06,72.95,73,13,16.42,ZA,1576233129
216,ban nahin,18.24,104.21,70.03,60,10,5.17,LA,1576233129
217,gumdag,39.2,54.59,52.34,51,63,18.01,TM,1576233130
218,sabang,13.8,121.11,81.0,83,5,4.0,PH,1576233130
219,zhangye,38.94,100.46,27.84,33,33,4.16,CN,1576233130
220,gladstone,-23.84,151.26,81.0,69,18,9.17,AU,1576233130
221,kokoda,-8.88,147.74,62.64,91,100,2.35,PG,1576233131
222,davenda,53.56,119.32,-7.42,94,0,2.82,RU,1576233131
223,shirokiy,53.87,39.17,31.1,86,99,10.11,RU,1576233131
224,tasiilaq,65.61,-37.64,19.4,73,89,9.17,GL,1576233131
225,cherskiy,68.75,161.3,-17.32,100,91,0.89,RU,1576233132
226,mauganj,24.67,81.88,67.37,78,25,8.86,IN,1576233132
227,itoman,26.12,127.67,68.0,60,20,8.05,JP,1576233132
228,esperance,-33.86,121.89,82.4,28,0,17.22,AU,1576233132
229,yangambi,0.77,24.47,91.17,48,50,0.92,CD,1576233132
230,qaanaaq,77.48,-69.36,-4.0,68,100,9.55,GL,1576233134
231,beloha,-25.17,45.06,77.49,76,84,13.96,MG,1576233134
232,bourail,-21.57,165.5,69.06,79,51,3.06,NC,1576233134
233,aklavik,68.22,-135.01,-14.8,68,5,4.7,CA,1576233134
234,poum,41.28,20.71,48.2,66,75,6.93,MK,1576233135
235,stuttgart,48.78,9.18,44.01,86,75,11.41,DE,1576233113
236,fortuna,40.6,-124.16,55.0,93,90,4.7,US,1576233135
237,comodoro rivadavia,-45.87,-67.48,55.4,58,50,6.93,AR,1576233135
238,port alfred,-33.59,26.89,69.01,86,58,11.99,ZA,1576233136
239,biscarrosse,44.41,-1.18,57.2,76,100,26.4,FR,1576233136
240,iqaluit,63.75,-68.52,-2.2,70,75,9.17,CA,1576233136
241,ucluelet,48.94,-125.55,44.01,94,75,4.21,CA,1576233136
242,tessalit,20.2,1.01,81.95,3,100,10.71,ML,1576233137
243,hambantota,6.12,81.12,84.2,89,40,4.7,LK,1576233137
244,prieska,-29.67,22.74,96.55,8,0,23.2,ZA,1576233137
245,georgetown,6.8,-58.16,75.2,100,75,4.7,GY,1576233124
246,maldonado,-34.91,-54.96,60.8,59,20,8.05,UY,1576233138
247,chekhov,55.14,37.45,34.0,83,90,8.95,RU,1576233138
248,shimoda,34.7,138.93,46.4,87,40,5.82,JP,1576233138
249,sechura,-5.56,-80.82,67.28,90,81,10.45,PE,1576233138
250,morondava,-20.3,44.28,91.96,46,100,12.71,MG,1576233139
251,anchorage,61.22,-149.89,36.0,74,1,6.44,US,1576233067
252,caravelas,-17.73,-39.27,82.49,71,11,10.07,BR,1576233139
253,letychiv,49.38,27.62,36.52,80,100,17.81,UA,1576233139
254,bozoum,6.31,16.38,94.17,11,26,7.7,CF,1576233139
255,nchelenge,-9.35,28.74,77.72,70,97,5.14,ZM,1576233140
256,yerbogachen,61.28,108.01,27.7,93,100,15.05,RU,1576233140
257,kuloy,61.03,42.49,32.54,88,100,6.49,RU,1576233140
258,chifeng,42.27,118.96,18.7,59,0,14.29,CN,1576233140
259,yertsevo,60.8,40.09,31.93,90,100,7.74,RU,1576233140
260,vila,45.18,8.4,36.0,96,90,3.36,IT,1576233141
261,la ronge,55.1,-105.3,-18.4,75,5,4.03,CA,1576233141
262,wagar,31.44,-87.99,48.0,81,100,2.93,US,1576233141
263,byron bay,-28.65,153.62,72.0,94,40,5.82,AU,1576233141
264,strezhevoy,60.73,77.6,19.4,85,75,4.47,RU,1576233142
265,cruzeiro do sul,-7.63,-72.67,73.71,97,100,0.83,BR,1576233142
266,cloquet,46.72,-92.46,24.01,85,90,1.43,US,1576232959
267,nshamba,-1.8,31.55,82.15,45,61,4.07,TZ,1576233142
268,kamenka,48.03,28.7,30.0,91,100,5.01,MD,1576233142
269,general pico,-35.66,-63.75,67.37,22,49,16.31,AR,1576233143
270,oranjestad,12.52,-70.03,75.2,94,20,5.82,AW,1576232896
271,neuquen,-38.95,-68.06,68.0,13,75,11.41,AR,1576233142
272,sobolevo,54.43,31.9,32.31,94,100,15.1,RU,1576233144
273,coquimbo,-29.95,-71.34,59.0,87,90,5.82,CL,1576233144
274,benito juarez,22.29,-79.63,60.8,93,20,1.12,CU,1576233144
275,laguna,16.17,-88.94,67.05,98,28,2.84,BZ,1576233144
276,kovdor,67.56,30.47,26.04,93,100,9.62,RU,1576233144
277,namatanai,-3.66,152.44,83.08,76,46,6.46,PG,1576233145
278,port elizabeth,39.31,-74.98,48.0,86,1,6.15,US,1576233145
279,kavaratti,10.57,72.64,82.89,68,100,8.99,IN,1576233145
280,praia,-20.25,-43.81,73.4,78,92,6.93,BR,1576233145
281,san vicente,-0.59,-80.41,73.4,94,90,9.17,EC,1576233145
282,bulungu,-4.54,18.6,86.88,64,100,1.61,CD,1576233146
283,manaure,11.78,-72.45,79.25,77,45,8.75,CO,1576233146
284,vostok,46.45,135.83,8.17,94,97,3.8,RU,1576233146
285,straumen,63.87,11.3,39.0,51,4,8.05,NO,1576233146
286,nhulunbuy,-12.18,136.78,84.2,74,0,9.17,AU,1576233147
287,kholodnyy,62.72,147.95,-14.26,99,97,3.71,RU,1576233147
288,tromso,69.65,18.96,33.8,69,28,16.11,NO,1576233148
289,yulara,-25.24,130.99,82.4,21,88,10.29,AU,1576233149
290,aquiraz,-3.9,-38.39,81.0,78,75,13.87,BR,1576233149
291,genoa,44.41,8.93,43.0,75,75,5.82,IT,1576232875
292,kloulklubed,7.04,134.26,80.6,88,75,9.17,PW,1576233149
293,mandera,3.94,41.86,89.01,16,45,1.99,ET,1576233149
294,ejura,7.38,-1.37,96.62,32,62,3.56,GH,1576233150
295,sisimiut,66.94,-53.67,5.49,75,77,6.42,GL,1576233064
296,ipameri,-17.72,-48.16,68.47,93,100,5.44,BR,1576233150
297,saint-joseph,43.56,6.97,57.99,67,58,23.04,FR,1576233150
298,kargasok,59.06,80.87,6.62,96,92,8.72,RU,1576233150
299,lincoln,53.23,-0.54,46.0,87,40,12.75,GB,1576233151
300,muzhi,65.4,64.7,14.16,88,62,6.98,RU,1576233151
301,fort nelson,58.81,-122.69,-5.8,76,90,4.7,CA,1576233151
302,kulhudhuffushi,6.62,73.07,83.28,71,46,8.72,MV,1576233037
303,zhanaozen,43.35,52.85,36.43,70,0,12.48,KZ,1576232930
304,kaka,37.35,59.62,54.37,38,0,5.53,TM,1576233152
305,benjamin aceval,-24.97,-57.57,71.6,88,0,4.7,PY,1576233152
306,machico,32.7,-16.77,64.4,68,40,8.05,PT,1576233152
307,viedma,-40.81,-62.99,65.91,24,100,19.73,AR,1576233153
308,ilulissat,69.22,-51.1,15.8,52,75,11.41,GL,1576233153
309,rio grande,-32.03,-52.1,64.4,72,0,3.36,BR,1576232999
310,mandan,46.83,-100.89,23.0,85,75,5.82,US,1576232921
311,cayenne,4.94,-52.33,73.4,100,75,7.76,GF,1576233154
312,nouakchott,18.08,-15.98,68.0,12,71,14.99,MR,1576233154
313,college,64.86,-147.8,15.8,85,1,10.29,US,1576233023
314,shakawe,-18.36,21.84,98.98,15,17,9.51,BW,1576233154
315,port keats,-14.25,129.55,82.63,67,24,5.86,AU,1576233154
316,westport,41.14,-73.36,37.4,78,40,8.05,US,1576233155
317,chokurdakh,70.62,147.9,-30.01,99,56,2.64,RU,1576233041
318,port macquarie,-31.43,152.91,68.0,100,90,3.36,AU,1576232997
319,nouadhibou,20.93,-17.03,64.4,36,50,19.46,MR,1576233155
320,bonao,18.94,-70.41,68.0,100,40,2.93,DO,1576233156
321,nanortalik,60.14,-45.24,29.75,69,100,9.08,GL,1576233156
322,provideniya,64.42,-173.23,21.78,92,100,7.09,RU,1576233156
323,marystown,47.17,-55.16,23.0,100,79,11.01,CA,1576233156
324,tiksi,71.64,128.87,-28.55,87,13,4.56,RU,1576233157
325,geraldton,49.72,-86.95,-14.8,75,90,2.24,CA,1576233157
326,solikamsk,59.65,56.78,19.0,95,100,6.29,RU,1576233157
327,kiunga,-6.12,141.3,73.98,95,95,1.72,PG,1576233157
328,mildura,-34.18,142.16,77.0,23,93,9.17,AU,1576233158
329,truth or consequences,33.13,-107.25,48.2,49,1,10.29,US,1576233158
330,raudeberg,61.99,5.14,42.8,56,100,18.34,NO,1576233159
331,orlik,53.95,17.74,34.0,92,90,14.99,PL,1576233159
332,tyumentsevo,53.32,81.5,28.58,95,99,11.3,RU,1576233160
333,lebowakgomo,-24.3,29.54,71.6,64,75,16.11,ZA,1576233160
334,tokoroa,-38.22,175.87,63.0,50,55,4.99,NZ,1576233161
335,kilosa,-6.84,36.99,91.53,42,26,3.56,TZ,1576233161
336,ibra,22.69,58.55,78.76,40,0,7.05,OM,1576233161
337,kysyl-syr,63.9,122.77,-30.37,99,79,5.73,RU,1576233161
338,kilcormac,53.18,-7.73,44.01,78,77,18.01,IE,1576233162
339,champerico,16.38,-93.6,63.5,97,66,1.7,MX,1576233162
340,hofn,64.25,-15.21,21.2,57,2,10.29,IS,1576233162
341,quang ngai,15.12,108.8,74.35,83,37,16.17,VN,1576233136
342,bonaventure,48.04,-65.49,1.99,84,75,4.7,CA,1576233162
343,illapel,-31.63,-71.17,65.48,36,0,5.55,CL,1576233163
344,zarechnyy,60.99,40.4,32.02,90,100,7.25,RU,1576233163
345,guerrero negro,27.97,-114.04,60.04,60,0,2.44,MX,1576233163
346,jijiga,9.35,42.8,74.75,40,15,11.18,ET,1576233163
347,kouroussa,10.65,-9.88,89.83,12,74,7.52,GN,1576233163
348,sitka,37.17,-99.65,28.99,84,50,5.79,US,1576233164
349,arlit,18.74,7.39,81.5,4,17,4.5,NE,1576233164
350,minot,48.23,-101.3,21.2,78,90,3.36,US,1576232931
351,sarkand,45.41,79.91,28.81,78,100,3.74,KZ,1576233164
352,harper,30.3,-99.24,46.99,77,1,15.82,US,1576233165
353,san ignacio,-5.15,-79.0,58.77,91,100,1.16,PE,1576233165
354,ponta delgada,37.73,-25.67,60.8,63,75,11.41,PT,1576233165
355,senanga,-16.1,23.3,90.28,32,13,5.06,ZM,1576233165
356,buncrana,55.14,-7.45,46.4,100,75,9.17,GB,1576233165
357,tadine,-21.55,167.88,71.33,72,99,6.08,NC,1576233166
358,quatre cocos,-20.21,57.76,86.0,70,75,16.11,MU,1576233166
359,ternate,14.29,120.72,86.0,58,20,5.82,PH,1576233166
360,taree,-31.91,152.46,66.99,88,90,4.7,AU,1576233166
361,lazaro cardenas,28.39,-105.62,41.0,79,0,3.0,MX,1576233166
362,faya,18.39,42.45,73.4,46,40,13.87,SA,1576233167
363,puro,13.13,123.76,78.75,87,11,10.09,PH,1576233167
364,tuatapere,-46.13,167.69,54.0,76,77,14.0,NZ,1576233167
365,glendive,47.11,-104.71,24.8,85,1,4.7,US,1576233167
366,alofi,-19.06,-169.92,77.0,94,100,2.24,NU,1576233167
367,oum hadjer,13.3,19.7,90.5,9,36,6.13,TD,1576233168
368,viljoenskroon,-27.21,26.95,85.33,27,0,12.39,ZA,1576233168
369,oriximina,-1.77,-55.87,79.23,80,86,5.06,BR,1576233168
370,karratha,-20.74,116.85,83.57,74,0,10.85,AU,1576233168
371,mpika,-11.84,31.4,73.65,80,100,3.33,ZM,1576233168
372,chara,39.42,22.43,57.2,87,75,1.43,GR,1576233169
373,beringovskiy,63.05,179.32,22.14,94,100,11.9,RU,1576233169
374,ahuimanu,21.44,-157.84,75.2,100,90,4.7,US,1576233169
375,galveston,40.58,-86.19,34.0,100,1,6.93,US,1576233170
376,galesong,-5.32,119.37,77.0,100,40,8.05,ID,1576233171
377,bonthe,7.53,-12.5,86.36,64,14,4.88,SL,1576233171
378,balkanabat,39.51,54.36,47.73,49,0,11.3,TM,1576233171
379,anadyr,64.73,177.51,32.0,95,90,24.61,RU,1576233171
380,ullapool,57.9,-5.16,43.0,85,100,3.0,GB,1576233172
381,juneau,58.3,-134.42,37.4,93,90,14.99,US,1576233172
382,fairbanks,64.84,-147.72,15.8,85,1,10.29,US,1576233046
383,waitati,-45.75,170.57,54.0,88,46,3.0,NZ,1576233102
384,tignere,7.37,12.65,89.89,14,61,6.17,CM,1576233172
385,tuktoyaktuk,69.44,-133.03,-9.69,82,0,13.24,CA,1576233173
386,waipawa,-39.94,176.59,61.0,76,46,3.0,NZ,1576233173
387,methven,-43.63,171.65,62.01,45,43,1.99,NZ,1576233173
388,forbes,-33.38,148.01,75.0,11,56,1.01,AU,1576233173
389,ikorodu,6.62,3.5,84.2,79,20,12.41,NG,1576233173
390,nisia floresta,-6.09,-35.21,82.4,65,40,11.41,BR,1576233174
391,kuldiga,56.97,21.96,35.6,93,90,8.05,LV,1576233174
392,hazorasp,41.32,61.08,33.8,80,90,11.41,UZ,1576233174
393,shetpe,44.14,52.16,36.3,73,0,14.94,KZ,1576233174
394,palmer,-34.85,139.16,64.4,59,75,11.41,AU,1576233175
395,nador,35.17,-2.93,64.4,68,20,29.97,MA,1576233175
396,labuhan,-2.54,115.51,74.59,95,100,2.57,ID,1576233175
397,amahai,-3.31,129.0,87.01,75,83,11.18,ID,1576233175
398,aksarka,66.56,67.8,0.36,85,0,2.57,RU,1576233175
399,vestmanna,62.16,-7.17,30.2,86,93,6.93,FO,1576233176
400,tiznit,29.7,-9.73,67.32,33,0,1.57,MA,1576233176
401,namtsy,62.72,129.66,-41.8,57,93,2.26,RU,1576233176
402,camacha,33.08,-16.33,64.4,68,40,5.82,PT,1576233176
403,marsa matruh,31.35,27.25,62.6,63,20,16.11,EG,1576233153
404,jucuaran,13.25,-88.25,78.84,66,63,9.6,SV,1576233177
405,ayan,38.23,44.7,32.38,80,96,3.56,IR,1576233177
406,qaqortoq,60.72,-46.03,33.8,24,40,25.28,GL,1576232944
407,parry sound,45.34,-80.04,30.99,88,100,8.68,CA,1576233177
408,baykit,61.68,96.39,18.03,90,100,9.04,RU,1576233178
409,rioja,-6.06,-77.17,66.31,98,97,0.38,PE,1576233178
410,mogadishu,2.04,45.34,86.0,66,40,12.75,SO,1576233141
411,seaford,50.77,0.1,46.99,65,20,24.16,GB,1576233178
412,itarema,-2.92,-39.92,84.74,65,92,11.65,BR,1576233178
413,burgeo,47.61,-57.61,22.06,68,100,26.55,CA,1576233179
414,yamada,36.58,137.08,42.01,75,75,2.24,JP,1576233179
415,mangrol,25.33,76.51,70.16,51,63,5.32,IN,1576233179
416,novyy urengoy,66.08,76.63,-6.0,96,93,12.77,RU,1576233179
417,basoda,23.85,77.92,72.93,51,47,6.73,IN,1576233179
418,ipixuna,-1.76,-48.8,77.0,94,20,3.36,BR,1576233180
419,prince george,53.92,-122.75,30.2,100,90,2.24,CA,1576233180
420,cordoba,-27.78,-67.24,70.2,28,1,3.58,AR,1576233180
421,leeton,-34.55,146.4,75.2,22,77,8.05,AU,1576233180
422,panaba,21.28,-88.27,69.91,95,64,3.53,MX,1576233180
423,natal,-5.81,-35.21,82.4,65,40,11.41,BR,1576233146
424,hamilton,43.26,-79.87,37.4,74,75,9.17,CA,1576232984
425,tual,-5.67,132.75,84.09,66,100,2.04,ID,1576233181
426,laureles,29.18,-110.87,55.99,87,5,3.89,MX,1576233181
427,cabo san lucas,22.89,-109.91,64.0,82,0,3.0,MX,1576233021
428,presidencia roque saenz pena,-26.79,-60.44,79.14,36,35,9.62,AR,1576233182
429,san cristobal,14.68,-86.92,61.63,97,97,2.91,HN,1576233182
430,valdosta,30.83,-83.28,50.0,87,90,6.93,US,1576233182
431,am timan,11.04,20.28,102.81,9,74,2.68,TD,1576233182
432,lavrentiya,65.58,-170.99,23.67,83,58,6.06,RU,1576233183
433,polangi,11.53,124.92,74.73,95,90,2.33,PH,1576233183
434,madingou,-4.17,13.56,79.63,81,93,1.3,CG,1576233183
435,soyo,-6.13,12.37,84.2,79,75,6.93,AO,1576233183
436,hasaki,35.73,140.83,46.4,65,75,6.93,JP,1576233183
437,kaeng khoi,14.59,101.0,93.99,36,30,8.37,TH,1576233184
438,iskateley,67.68,53.15,21.16,96,97,7.78,RU,1576233184
439,boliqueime,37.13,-8.16,64.0,87,75,8.05,PT,1576233184
440,kibre mengist,5.87,38.99,71.92,69,31,4.85,ET,1576233184
441,tacuarembo,-31.73,-55.98,64.33,54,0,11.25,UY,1576233146
442,filadelfia,-22.35,-60.04,83.19,68,68,6.06,PY,1576233185
443,camalu,30.85,-116.07,57.2,61,0,2.37,MX,1576233185
444,dalbandin,28.9,64.41,59.36,24,3,7.02,PK,1576233185
445,meulaboh,4.14,96.13,82.78,70,74,1.88,ID,1576233185
446,atar,20.52,-13.05,66.2,32,95,2.24,MR,1576233186
447,flinders,-34.58,150.85,69.01,77,90,5.82,AU,1576233186
448,mehran,33.12,46.17,46.4,75,90,4.7,IR,1576233186
449,madiun,-7.63,111.52,80.02,81,68,4.88,ID,1576233186
450,bilma,18.69,12.92,70.45,10,14,9.37,NE,1576233186
451,yaring,6.87,101.37,75.2,94,90,11.41,TH,1576233187
452,sigli,5.38,95.96,81.81,79,59,18.12,ID,1576233187
453,shumskiy,54.83,99.13,19.89,81,100,1.72,RU,1576233188
454,almendralejo,38.68,-6.41,59.0,82,90,17.22,ES,1576233188
455,klyuchi,52.25,79.17,31.23,98,100,4.85,RU,1576233188
456,chegdomyn,51.13,133.04,-13.92,97,92,0.51,RU,1576233189
457,athabasca,54.72,-113.29,-1.26,97,100,4.79,CA,1576233189
458,dudinka,69.41,86.18,-14.8,83,40,13.42,RU,1576233189
459,bahar,34.91,48.44,35.6,93,90,2.24,IR,1576233189
460,libertador general san martin,-23.81,-64.79,64.98,84,100,0.47,AR,1576233189
461,senahu,15.42,-89.82,58.32,97,0,3.44,GT,1576233190
462,antalaha,-14.9,50.28,83.91,77,14,14.61,MG,1576233190
463,henties bay,-22.12,14.28,66.0,82,13,15.73,NA,1576233190
464,jalu,29.03,21.55,67.8,22,0,12.95,LY,1576233190
465,imeni poliny osipenko,52.42,136.49,-9.96,99,100,0.6,RU,1576233190
466,timizart,36.8,4.25,62.38,80,92,38.92,DZ,1576233191
467,ussel,45.55,2.31,51.01,36,100,5.99,FR,1576233191
468,santa helena de goias,-17.81,-50.6,71.19,89,100,2.24,BR,1576233191
469,thinadhoo,0.53,72.93,83.26,71,58,8.95,MV,1576233191
470,high level,58.52,-117.13,-27.4,67,1,2.24,CA,1576233191
471,bage,12.95,75.85,72.59,69,49,6.49,IN,1576233192
472,reconquista,-29.14,-59.64,72.61,35,29,13.15,AR,1576233192
473,dobeln,51.12,13.12,39.0,74,75,14.99,DE,1576233192
474,opunake,-39.45,173.86,60.01,96,76,10.0,NZ,1576233193
475,adelaide,-34.93,138.6,64.99,59,75,11.41,AU,1576233081
476,salinopolis,-0.61,-47.36,82.04,79,62,15.19,BR,1576233193
477,pedernales,0.07,-80.05,72.52,88,95,3.98,EC,1576233193
478,barinitas,8.76,-70.41,53.11,81,31,0.96,VE,1576233193
479,chippewa falls,44.94,-91.39,10.4,92,90,3.36,US,1576233193
480,savelugu,9.63,-0.83,94.21,8,41,6.82,GH,1576233194
481,tuy hoa,13.08,109.3,76.06,85,99,21.47,VN,1576233194
482,coffs harbour,-30.3,153.13,71.6,93,90,9.17,AU,1576233024
483,helena,46.59,-112.04,37.4,59,1,20.8,US,1576233136
484,casper,42.87,-106.31,33.8,69,75,11.41,US,1576233195
485,grand gaube,-20.01,57.66,86.0,70,75,16.11,MU,1576233195
486,calvinia,-31.47,19.78,86.56,24,0,19.84,ZA,1576233196
487,mahebourg,-20.41,57.7,86.0,70,75,16.11,MU,1576233196
488,lorengau,-2.02,147.27,84.61,73,99,9.73,PG,1576233196
489,yurla,59.33,54.32,20.77,93,100,7.07,RU,1576233197
490,tigzirt,36.57,4.2,57.52,72,79,20.04,DZ,1576233197
491,nome,30.04,-94.42,57.2,87,90,0.83,US,1576233197
492,maniitsoq,65.42,-52.9,21.4,60,90,12.1,GL,1576233197
493,paralimni,40.99,23.67,60.01,83,67,1.45,GR,1576233197
494,zhigalovo,54.81,105.15,10.36,95,98,2.37,RU,1576233198
495,urucara,-2.54,-57.76,79.56,80,100,2.82,BR,1576233198
496,klaksvik,62.23,-6.59,30.2,86,100,6.93,FO,1576233198
497,hami,42.84,93.51,25.29,45,12,1.32,CN,1576233198
498,moranbah,-22.0,148.04,82.04,52,51,10.16,AU,1576233199
499,tilichiki,60.47,166.1,-13.85,97,5,7.83,RU,1576233199
500,turan,52.15,93.92,1.54,85,100,2.59,RU,1576233199
501,ixtapa,20.71,-105.21,66.99,88,5,4.7,MX,1576233199
502,berlevag,70.86,29.09,35.6,74,100,32.21,NO,1576233200
503,perigueux,45.18,0.72,51.01,80,99,10.0,FR,1576233200
504,asyut,27.18,31.19,62.6,45,17,6.93,EG,1576233200
505,praya,-8.71,116.27,78.8,88,75,1.12,ID,1576233200
506,port blair,11.67,92.75,80.87,71,39,18.32,IN,1576233201
507,plettenberg bay,-34.05,23.37,72.43,75,16,15.08,ZA,1576233201
508,carauari,-4.88,-66.9,77.54,91,99,2.59,BR,1576233201
509,ola,59.58,151.3,-3.17,75,99,6.96,RU,1576233201
510,ajdabiya,30.75,20.22,66.27,25,20,15.66,LY,1576233201
511,pinyug,60.25,47.79,26.82,93,99,7.94,RU,1576233202
512,benfleet,51.56,0.56,46.4,81,40,14.99,GB,1576233203
513,pingliang,35.54,106.68,30.9,74,100,5.55,CN,1576233203
514,pirovskoye,57.63,92.27,23.86,93,100,8.7,RU,1576233203
515,mugur-aksy,50.38,90.44,6.26,57,100,5.77,RU,1576233204
516,kieta,-6.22,155.63,81.77,77,92,5.95,PG,1576233204
517,sarangani,5.4,125.46,82.89,76,84,18.61,PH,1576233204
518,chabahar,25.29,60.65,78.8,36,1,9.17,IR,1576233204
519,baghdad,33.3,44.38,60.8,72,90,8.05,IQ,1576233204
520,fomboni,-12.28,43.74,83.39,68,0,3.53,KM,1576233205
521,roma,41.89,12.48,57.2,100,75,10.29,IT,1576233025
522,gat,14.69,-16.54,80.6,38,50,4.7,SN,1576233205
523,maceio,-9.67,-35.74,78.8,74,40,3.36,BR,1576233205
524,phirangipuram,16.29,80.26,86.0,62,20,6.93,IN,1576233206
525,doka,13.52,35.76,96.76,21,27,7.38,SD,1576233206
526,saquarema,-22.93,-42.51,75.2,94,75,6.93,BR,1576233206
527,phangnga,8.45,98.53,87.8,52,20,6.93,TH,1576233206
528,medea,36.27,2.77,64.4,63,75,16.11,DZ,1576233206
529,mubi,10.27,13.26,84.76,15,3,7.47,NG,1576233206
530,rosetta,31.4,30.42,64.4,72,40,18.34,EG,1576233207
531,chany,55.31,76.76,3.29,94,46,6.38,RU,1576233207
532,evensk,61.92,159.24,-14.93,74,0,11.72,RU,1576233207
533,touros,-5.2,-35.46,80.6,69,40,6.93,BR,1576233207
534,along,28.17,94.8,56.66,86,66,2.15,IN,1576233207
535,kosa,32.67,130.82,44.6,70,20,3.36,JP,1576233208
536,jaciara,-15.95,-54.98,76.23,84,92,4.63,BR,1576233208
537,azanka,58.04,64.79,14.92,91,36,5.59,RU,1576233208
538,betsiamites,48.94,-68.65,10.4,85,90,8.05,CA,1576233208
539,ahipara,-35.17,173.16,64.0,99,100,14.7,NZ,1576233209
540,inuvik,68.36,-133.71,-14.8,68,5,4.7,CA,1576233209
541,honiara,-9.43,159.96,80.6,94,40,3.36,SB,1576233209
542,launceston,-41.43,147.14,60.01,72,75,11.41,AU,1576233000
543,grobina,56.54,21.17,37.4,93,100,8.05,LV,1576233209
544,soligalich,59.08,42.29,30.42,88,100,8.01,RU,1576233210
545,padang,-0.92,100.36,69.89,95,54,2.93,ID,1576233210
546,formosa,-15.55,-47.33,76.06,77,65,5.12,BR,1576233210
547,gobabis,-22.45,18.97,91.24,13,46,5.1,NA,1576233210
548,miraflores,-16.39,-71.52,50.0,57,37,3.36,PE,1576233020
549,gaoyou,32.79,119.43,57.0,74,0,5.55,CN,1576233211
